{
"type": "FeatureCollection",
"features": [
{ "type": "Feature", "properties": { "OBJECTID": 1, "Id": 1, "Name": "Bartram Avenue, Island Avenue, Enterprise Avenue, Fort Mifflin Road, Hog Island Road, Scott Way", "Fac_Served": "Philadelphia International  Airport", "Township_s": "Philadelphia City, Tinicum Township", "Cap_1": 1.0, "Cap_2": 11.28, "Source": "2012 DVRPC", "Name": "Bartram Avenue, Island Avenue, Enterprise Avenue, Fort Mifflin Road, Hog Island Road, Scott Way", "LAT": 39.873119503799998, "LONG": -75.243611316200003 }, "geometry": { "type": "Point", "coordinates": [ -75.243611316198781, 39.873119503844691 ] } },
{ "type": "Feature", "properties": { "OBJECTID": 2, "Id": 2, "Name": "Bethel Road", "Fac_Served": "CSX Twin Oaks", "Township_s": "Upper Chichester Township", "Cap_1": 1.0, "Cap_2": 0.38, "Source": "2012 DVRPC", "Name": "Bethel Road", "LAT": 39.8429794527, "LONG": -75.413959450700006 }, "geometry": { "type": "Point", "coordinates": [ -75.413959450744485, 39.842979452649729 ] } },
{ "type": "Feature", "properties": { "OBJECTID": 3, "Id": 3, "Name": "Stewart Avenue, Industrial Highway (PA 291), Saville Avenue", "Fac_Served": "Penn Terminals", "Township_s": "Ridley Township, Eddystone Borough", "Cap_1": 2.0, "Cap_2": 2.14, "Source": "2012 DVRPC", "Name": "Stewart Avenue, Industrial Highway (PA 291), Saville Avenue", "LAT": 39.861516656, "LONG": -75.329202904400006 }, "geometry": { "type": "Point", "coordinates": [ -75.329202904380281, 39.861516655979081 ] } },
{ "type": "Feature", "properties": { "OBJECTID": 4, "Id": 4, "Name": "Wharton Street, Warfield Street, Moore Street, 34th Street, Maiden Lane, Vare Street, 28th Street, Passyunk Avenue", "Fac_Served": "CSX Transflo", "Township_s": "Philadelphia City", "Cap_1": 1.0, "Cap_2": 2.38, "Source": "2012 DVRPC", "Name": "Wharton Street, Warfield Street, Moore Street, 34th Street, Maiden Lane, Vare Street, 28th Street, Passyunk Avenue", "LAT": 39.928006396800001, "LONG": -75.196101001800002 }, "geometry": { "type": "Point", "coordinates": [ -75.196101001797757, 39.928006396752941 ] } },
{ "type": "Feature", "properties": { "OBJECTID": 5, "Id": 5, "Name": "Delaware Avenue", "Fac_Served": "South Philadelphia Freight Complex", "Township_s": "Philadelphia City", "Cap_1": 1.0, "Cap_2": 1.13, "Source": "2012 DVRPC", "Name": "Delaware Avenue", "LAT": 39.906877382, "LONG": -75.138914613899999 }, "geometry": { "type": "Point", "coordinates": [ -75.138914613860081, 39.906877382010826 ] } },
{ "type": "Feature", "properties": { "OBJECTID": 6, "Id": 6, "Name": "Morgan Boulevard, Broadway (County Road 551), King Street", "Fac_Served": "Broadway & Gloucester Marine Terminals", "Township_s": "Camden City, Gloucester City", "Cap_1": 1.0, "Cap_2": 0.97, "Source": "2012 DVRPC", "Name": "Morgan Boulevard, Broadway (County Road 551), King Street", "LAT": 39.908077140300001, "LONG": -75.119789643800004 }, "geometry": { "type": "Point", "coordinates": [ -75.119789643753876, 39.908077140345512 ] } },
{ "type": "Feature", "properties": { "OBJECTID": 7, "Id": 7, "Name": "Beckett Street, 2nd Street, Ferry Avenue, Atlantic Avenue", "Fac_Served": "Joseph Balzano Marine Terminal", "Township_s": "Camden City", "Cap_1": 1.0, "Cap_2": 2.37, "Source": "2012 DVRPC", "Name": "Beckett Street, 2nd Street, Ferry Avenue, Atlantic Avenue", "LAT": 39.935574418500003, "LONG": -75.119072166799995 }, "geometry": { "type": "Point", "coordinates": [ -75.119072166783752, 39.93557441849088 ] } },
{ "type": "Feature", "properties": { "OBJECTID": 8, "Id": 8, "Name": "Bath Street, Alleghany Avenue, N. Delaware Avenue, Castor Avenue", "Fac_Served": "Tioga Marine Terminal", "Township_s": "Philadelphia City", "Cap_1": 1.0, "Cap_2": 1.67, "Source": "2012 DVRPC", "Name": "Bath Street, Alleghany Avenue, N. Delaware Avenue, Castor Avenue", "LAT": 39.980380201499997, "LONG": -75.090300940500001 }, "geometry": { "type": "Point", "coordinates": [ -75.09030094046156, 39.980380201479697 ] } },
{ "type": "Feature", "properties": { "OBJECTID": 9, "Id": 9, "Name": "36th Street, River Road", "Fac_Served": "Petty's Island", "Township_s": "Palmyra Borough, Pennsauken Township, Camden City", "Cap_1": 1.0, "Cap_2": 4.05, "Source": "2012 DVRPC", "Name": "36th Street, River Road", "LAT": 39.977652053600004, "LONG": -75.056343721700003 }, "geometry": { "type": "Point", "coordinates": [ -75.056343721728908, 39.977652053557939 ] } },
{ "type": "Feature", "properties": { "OBJECTID": 10, "Id": 10, "Name": "East Cabot Boulevard, Oxford Valley Road", "Fac_Served": "Norfolk Southern Morrisville Intermodal Facility", "Township_s": "Lower Makefield Township, Falls Township", "Cap_1": 1.0, "Cap_2": 1.41, "Source": "2012 DVRPC", "Name": "East Cabot Boulevard, Oxford Valley Road", "LAT": 40.192634307399999, "LONG": -74.857535631399998 }, "geometry": { "type": "Point", "coordinates": [ -74.85753563143922, 40.192634307437096 ] } },
{ "type": "Feature", "properties": { "OBJECTID": 11, "Id": 11, "Name": "Pennsylvania Avenue", "Fac_Served": "Keystone Industrial Port Complex", "Township_s": "Morrisville Borough, Falls Township", "Cap_1": 1.0, "Cap_2": 2.56, "Source": "2012 DVRPC", "Name": "Pennsylvania Avenue", "LAT": 40.1899305154, "LONG": -74.765094838699994 }, "geometry": { "type": "Point", "coordinates": [ -74.763429420896358, 40.187041187149447 ] } }
]
}